var mySeattle = {"type":"FeatureCollection","features":[{"type":"Feature","properties":{"Name":"50th & 21st","Type":"Home"},"geometry":{"type":"Point","coordinates":[-122.30551242828369,47.6651705928743]}},{"type":"Feature","properties":{"Name":"Mormon Hostel","Type":"Home"},"geometry":{"type":"Point","coordinates":[-122.31999635696413,47.66971521150786]}},{"type":"Feature","properties":{"Name":"Sureshot","Type":"Coffee"},"geometry":{"type":"Point","coordinates":[-122.3133659362793,47.661615543824254]}},{"type":"Feature","properties":{"Name":"Twice Sold Tales","Type":"Books"},"geometry":{"type":"Point","coordinates":[-122.3133659362793,47.66147102451434]}},{"type":"Feature","properties":{"Name":"Magus","Type":"Books"},"geometry":{"type":"Point","coordinates":[-122.31279730796814,47.65843602659008]}},{"type":"Feature","properties":{"Name":"Cafe Allegro","Type":"Coffee"},"geometry":{"type":"Point","coordinates":[-122.31273293495177,47.65867088391795]}},{"type":"Feature","properties":{"Name":"Cafe Solstice","Type":"Coffee"},"geometry":{"type":"Point","coordinates":[-122.31300115585327,47.65740986833501]}},{"type":"Feature","properties":{"Name":"Henry Cafe","Type":"Coffee"},"geometry":{"type":"Point","coordinates":[-122.31168150901793,47.65627528960525]}},{"type":"Feature","properties":{"Name":"S","Type":"Home"},"geometry":{"type":"Point","coordinates":[-122.30862379074095,47.65568269728309]}},{"type":"Feature","properties":{"Name":"2nd & Battery","Type":"Home"},"geometry":{"type":"Point","coordinates":[-122.333664894104,47.65103567313565]}},{"type":"Feature","properties":{"Name":"Hmmm","Type":"Unk"},"geometry":{"type":"Point","coordinates":[-122.34703302383423,47.61501625460038]}},{"type":"Feature","properties":{"Name":"Bedlam","Type":"Coffee"},"geometry":{"type":"Point","coordinates":[-122.3454236984253,47.613642079955596]}},{"type":"Feature","properties":{"Name":"Uptown Coffee","Type":"Coffee"},"geometry":{"type":"Point","coordinates":[-122.34615325927734,47.61688218130732]}},{"type":"Feature","properties":{"Name":"Beacon Hill","Type":"Home"},"geometry":{"type":"Point","coordinates":[-122.31241106986998,47.59042753784139]}},{"type":"Feature","properties":{"Name":"Seattle Central cafeteria","Type":"Coffee"},"geometry":{"type":"Point","coordinates":[-122.32177734375,47.616896645595354]}},{"type":"Feature","properties":{"Name":"Cafe Vita","Type":"Coffee"},"geometry":{"type":"Point","coordinates":[-122.31898784637453,47.613945847986095]}},{"type":"Feature","properties":{"Name":"Jay's","Type":"Home"},"geometry":{"type":"Point","coordinates":[-122.30302333831786,47.61119740632608]}},{"type":"Feature","properties":{"Name":"Cortona Cafe","Type":"Coffee"},"geometry":{"type":"Point","coordinates":[-122.30036258697508,47.61278862699824]}},{"type":"Feature","properties":{"Name":"Ada's","Type":"Coffee"},"geometry":{"type":"Point","coordinates":[-122.31294751167297,47.62267842423683]}},{"type":"Feature","properties":{"Name":"Capitol Hill Library","Type":"Books"},"geometry":{"type":"Point","coordinates":[-122.32231378555298,47.622913442364805]}},{"type":"Feature","properties":{"Name":"Elliot Bay, new","Type":"Books"},"geometry":{"type":"Point","coordinates":[-122.3196315765381,47.61459677353807]}},{"type":"Feature","properties":{"Name":"Central Library","Type":"Books"},"geometry":{"type":"Point","coordinates":[-122.33267784118651,47.606669395343815]}},{"type":"Feature","properties":{"Name":"Elliot Bay Books, old","Type":"Books"},"geometry":{"type":"Point","coordinates":[-122.33394384384155,47.59989834732939]}}]}